[{"id": "CVnvnYpDu3DuFBEnTiN5_g", "alias": "wongs-chinese-restaurant-reading", "name": "Wong's Chinese Restaurant", "image_url": "https://s3-media2.fl.yelpcdn.com/bphoto/bYG6bWvdowFqU9i1LMHDgA/o.jpg", "is_closed": false, "url": "https://www.yelp.com/biz/wongs-chinese-restaurant-reading?adjust_creative=pmEh1CnvTrbj1V5gF4_06w&utm_campaign=yelp_api_v3&utm_medium=api_v3_business_search&utm_source=pmEh1CnvTrbj1V5gF4_06w", "review_count": 14, "categories": [{"alias": "chinese", "title": "Chinese"}, {"alias": "seafood", "title": "Seafood"}, {"alias": "chicken_wings", "title": "Chicken Wings"}], "rating": 4.5, "coordinates": {"latitude": 40.365425, "longitude": -75.919975}, "transactions": ["delivery"], "price": "$", "location": {"address1": "835-5 Hiesters Ln", "address2": null, "address3": "", "city": "Reading", "zip_code": "19605", "country": "US", "state": "PA", "display_address": ["835-5 Hiesters Ln", "Reading, PA 19605"]}, "phone": "+16109291999", "display_phone": "(610) 929-1999", "distance": 2062.2331792968603}, {"id": "x4aZiu4up011rNrkS-F_aQ", "alias": "fortune-cafe-wyomissing-2", "name": "Fortune Cafe", "image_url": "https://s3-media1.fl.yelpcdn.com/bphoto/7rInx1N0B9qEa14QbYpxzA/o.jpg", "is_closed": false, "url": "https://www.yelp.com/biz/fortune-cafe-wyomissing-2?adjust_creative=pmEh1CnvTrbj1V5gF4_06w&utm_campaign=yelp_api_v3&utm_medium=api_v3_business_search&utm_source=pmEh1CnvTrbj1V5gF4_06w", "review_count": 18, "categories": [{"alias": "chinese", "title": "Chinese"}], "rating": 4.5, "coordinates": {"latitude": 40.3423, "longitude": -75.9809}, "transactions": ["delivery"], "location": {"address1": "1177 Berkshire Blvd", "address2": "", "address3": null, "city": "Wyomissing", "zip_code": "19610", "country": "US", "state": "PA", "display_address": ["1177 Berkshire Blvd", "Wyomissing, PA 19610"]}, "phone": "+16103965329", "display_phone": "(610) 396-5329", "distance": 3721.7894923937947}, {"id": "-kVxn8rVRPkcbRChaMQF9A", "alias": "wonderful-chinese-restaurant-reading", "name": "Wonderful Chinese Restaurant", "image_url": "https://s3-media4.fl.yelpcdn.com/bphoto/q5t1vH10JJDlb4XBxx03Cw/o.jpg", "is_closed": false, "url": "https://www.yelp.com/biz/wonderful-chinese-restaurant-reading?adjust_creative=pmEh1CnvTrbj1V5gF4_06w&utm_campaign=yelp_api_v3&utm_medium=api_v3_business_search&utm_source=pmEh1CnvTrbj1V5gF4_06w", "review_count": 19, "categories": [{"alias": "chinese", "title": "Chinese"}, {"alias": "sushi", "title": "Sushi Bars"}], "rating": 4.5, "coordinates": {"latitude": 40.3262672424316, "longitude": -76.0293579101562}, "transactions": ["delivery"], "price": "$", "location": {"address1": "4301 Penn Ave", "address2": null, "address3": null, "city": "Reading", "zip_code": "19608", "country": "US", "state": "PA", "display_address": ["4301 Penn Ave", "Reading, PA 19608"]}, "phone": "+16106788388", "display_phone": "(610) 678-8388", "distance": 8194.366784164775}, {"id": "0AXHF41K7QZcfWlvCJYXzw", "alias": "no-1-chinese-restaurant-reading-4", "name": "No.1 Chinese Restaurant", "image_url": "https://s3-media2.fl.yelpcdn.com/bphoto/WQv6hO_NarXYTeel1rld2w/o.jpg", "is_closed": false, "url": "https://www.yelp.com/biz/no-1-chinese-restaurant-reading-4?adjust_creative=pmEh1CnvTrbj1V5gF4_06w&utm_campaign=yelp_api_v3&utm_medium=api_v3_business_search&utm_source=pmEh1CnvTrbj1V5gF4_06w", "review_count": 30, "categories": [{"alias": "chinese", "title": "Chinese"}], "rating": 4.5, "coordinates": {"latitude": 40.2987075, "longitude": -75.9473523}, "transactions": ["delivery"], "price": "$", "location": {"address1": "160 Kenhorst Plz", "address2": "", "address3": "", "city": "Reading", "zip_code": "19607", "country": "US", "state": "PA", "display_address": ["160 Kenhorst Plz", "Reading, PA 19607"]}, "phone": "+16107750875", "display_phone": "(610) 775-0875", "distance": 6377.472186293713}, {"id": "UDjJEM5xlmmxseGERcihNw", "alias": "chans-chinese-restaurant-reading", "name": "Chan's Chinese Restaurant", "image_url": "https://s3-media2.fl.yelpcdn.com/bphoto/UIzJqI14UXVBhJb045H19A/o.jpg", "is_closed": false, "url": "https://www.yelp.com/biz/chans-chinese-restaurant-reading?adjust_creative=pmEh1CnvTrbj1V5gF4_06w&utm_campaign=yelp_api_v3&utm_medium=api_v3_business_search&utm_source=pmEh1CnvTrbj1V5gF4_06w", "review_count": 6, "categories": [{"alias": "chinese", "title": "Chinese"}], "rating": 4.5, "coordinates": {"latitude": 40.3321, "longitude": -75.92966}, "transactions": ["delivery"], "price": "$$", "location": {"address1": "201 S 4th St", "address2": "", "address3": "", "city": "Reading", "zip_code": "19602", "country": "US", "state": "PA", "display_address": ["201 S 4th St", "Reading, PA 19602"]}, "phone": "+16103721200", "display_phone": "(610) 372-1200", "distance": 2911.8772383960345}, {"id": "Dx1Ay1Vtk8eCZCGRHHQoyw", "alias": "mikura-reading", "name": "Mikura", "image_url": "https://s3-media2.fl.yelpcdn.com/bphoto/r5gkRdPDsAgxD2_OMwSWXw/o.jpg", "is_closed": false, "url": "https://www.yelp.com/biz/mikura-reading?adjust_creative=pmEh1CnvTrbj1V5gF4_06w&utm_campaign=yelp_api_v3&utm_medium=api_v3_business_search&utm_source=pmEh1CnvTrbj1V5gF4_06w", "review_count": 106, "categories": [{"alias": "asianfusion", "title": "Asian Fusion"}, {"alias": "sushi", "title": "Sushi Bars"}, {"alias": "thai", "title": "Thai"}], "rating": 3.5, "coordinates": {"latitude": 40.3464, "longitude": -75.95944}, "transactions": ["pickup", "delivery"], "price": "$$", "location": {"address1": "840 N Park Rd", "address2": "", "address3": "", "city": "Reading", "zip_code": "19610", "country": "US", "state": "PA", "display_address": ["840 N Park Rd", "Reading, PA 19610"]}, "phone": "+16103735851", "display_phone": "(610) 373-5851", "distance": 1910.1642284069765}, {"id": "qAT7gKm5Ndi0e0prictoOA", "alias": "china-wok-reading", "name": "China Wok", "image_url": "https://s3-media2.fl.yelpcdn.com/bphoto/dIhrAStmrPc6aRnBFpioHA/o.jpg", "is_closed": false, "url": "https://www.yelp.com/biz/china-wok-reading?adjust_creative=pmEh1CnvTrbj1V5gF4_06w&utm_campaign=yelp_api_v3&utm_medium=api_v3_business_search&utm_source=pmEh1CnvTrbj1V5gF4_06w", "review_count": 15, "categories": [{"alias": "chinese", "title": "Chinese"}], "rating": 3.5, "coordinates": {"latitude": 40.38523, "longitude": -75.92713}, "transactions": ["delivery"], "price": "$", "location": {"address1": "3401 N 5th Street Hwy", "address2": null, "address3": null, "city": "Reading", "zip_code": "19605", "country": "US", "state": "PA", "display_address": ["3401 N 5th Street Hwy", "Reading, PA 19605"]}, "phone": "+16109298383", "display_phone": "(610) 929-8383", "distance": 3391.1389936499463}, {"id": "nWSYTpcPOTmoWAw-_6vpvA", "alias": "tokyo-hibachi-and-bar-wyomissing", "name": "Tokyo Hibachi & Bar", "image_url": "https://s3-media2.fl.yelpcdn.com/bphoto/6BXRDefNkgt8AKiGl2aumw/o.jpg", "is_closed": false, "url": "https://www.yelp.com/biz/tokyo-hibachi-and-bar-wyomissing?adjust_creative=pmEh1CnvTrbj1V5gF4_06w&utm_campaign=yelp_api_v3&utm_medium=api_v3_business_search&utm_source=pmEh1CnvTrbj1V5gF4_06w", "review_count": 128, "categories": [{"alias": "chinese", "title": "Chinese"}, {"alias": "sushi", "title": "Sushi Bars"}, {"alias": "japanese", "title": "Japanese"}], "rating": 3.5, "coordinates": {"latitude": 40.34523, "longitude": -75.96808}, "transactions": ["pickup", "delivery"], "price": "$$", "location": {"address1": "960 Woodland Rd", "address2": "", "address3": "", "city": "Wyomissing", "zip_code": "19610", "country": "US", "state": "PA", "display_address": ["960 Woodland Rd", "Wyomissing, PA 19610"]}, "phone": "+16106852888", "display_phone": "(610) 685-2888", "distance": 2628.777696388009}, {"id": "Qwd8unlaye8Oov7qPmU3uA", "alias": "china-fun-restaurant-reading", "name": "China Fun Restaurant", "image_url": "https://s3-media1.fl.yelpcdn.com/bphoto/kXEyFdOL3QP_ID67Dkfmgg/o.jpg", "is_closed": false, "url": "https://www.yelp.com/biz/china-fun-restaurant-reading?adjust_creative=pmEh1CnvTrbj1V5gF4_06w&utm_campaign=yelp_api_v3&utm_medium=api_v3_business_search&utm_source=pmEh1CnvTrbj1V5gF4_06w", "review_count": 13, "categories": [{"alias": "chinese", "title": "Chinese"}], "rating": 4.0, "coordinates": {"latitude": 40.3867987, "longitude": -75.9345104}, "transactions": ["delivery"], "price": "$$", "location": {"address1": "3611 Pottsville Pike", "address2": "", "address3": "", "city": "Reading", "zip_code": "19605", "country": "US", "state": "PA", "display_address": ["3611 Pottsville Pike", "Reading, PA 19605"]}, "phone": "+16109390775", "display_phone": "(610) 939-0775", "distance": 3417.6931428203357}, {"id": "Uvf6IJ3rtIoUf17tQAgdeg", "alias": "great-china-reading", "name": "Great China", "image_url": "https://s3-media4.fl.yelpcdn.com/bphoto/OryjzCpyYzUsNdO5arY24Q/o.jpg", "is_closed": false, "url": "https://www.yelp.com/biz/great-china-reading?adjust_creative=pmEh1CnvTrbj1V5gF4_06w&utm_campaign=yelp_api_v3&utm_medium=api_v3_business_search&utm_source=pmEh1CnvTrbj1V5gF4_06w", "review_count": 20, "categories": [{"alias": "chinese", "title": "Chinese"}], "rating": 4.0, "coordinates": {"latitude": 40.3160268, "longitude": -76.0009589}, "transactions": ["delivery"], "price": "$", "location": {"address1": "2675 Shillington Rd", "address2": "", "address3": "", "city": "Reading", "zip_code": "19608", "country": "US", "state": "PA", "display_address": ["2675 Shillington Rd", "Reading, PA 19608"]}, "phone": "+16106789222", "display_phone": "(610) 678-9222", "distance": 6755.290102838181}, {"id": "l1n5ERIIVl8E4ynngU1Xsg", "alias": "zhuangs-garden-west-lawn-3", "name": "Zhuang's Garden", "image_url": "https://s3-media4.fl.yelpcdn.com/bphoto/Pt4b5vDD7p1pzo3Kw7zCQw/o.jpg", "is_closed": false, "url": "https://www.yelp.com/biz/zhuangs-garden-west-lawn-3?adjust_creative=pmEh1CnvTrbj1V5gF4_06w&utm_campaign=yelp_api_v3&utm_medium=api_v3_business_search&utm_source=pmEh1CnvTrbj1V5gF4_06w", "review_count": 87, "categories": [{"alias": "sushi", "title": "Sushi Bars"}, {"alias": "thai", "title": "Thai"}, {"alias": "chinese", "title": "Chinese"}], "rating": 3.5, "coordinates": {"latitude": 40.325632, "longitude": -76.002515}, "transactions": ["pickup", "delivery"], "price": "$$", "location": {"address1": "2834 Penn Ave", "address2": "", "address3": "", "city": "West Lawn", "zip_code": "19609", "country": "US", "state": "PA", "display_address": ["2834 Penn Ave", "West Lawn, PA 19609"]}, "phone": "+16106705650", "display_phone": "(610) 670-5650", "distance": 6231.960797223748}, {"id": "LnoNsqdAvecaKvvrXqk1KQ", "alias": "regal-buffet-reading", "name": "Regal Buffet", "image_url": "https://s3-media3.fl.yelpcdn.com/bphoto/PLyChnZMO0tUqTwDIhOHSw/o.jpg", "is_closed": false, "url": "https://www.yelp.com/biz/regal-buffet-reading?adjust_creative=pmEh1CnvTrbj1V5gF4_06w&utm_campaign=yelp_api_v3&utm_medium=api_v3_business_search&utm_source=pmEh1CnvTrbj1V5gF4_06w", "review_count": 117, "categories": [{"alias": "chinese", "title": "Chinese"}, {"alias": "buffets", "title": "Buffets"}, {"alias": "sushi", "title": "Sushi Bars"}], "rating": 3.5, "coordinates": {"latitude": 40.3826331413064, "longitude": -75.9286554713423}, "transactions": ["delivery"], "price": "$$", "location": {"address1": "3252 N 5th St Hwy", "address2": "", "address3": null, "city": "Reading", "zip_code": "19605", "country": "US", "state": "PA", "display_address": ["3252 N 5th St Hwy", "Reading, PA 19605"]}, "phone": "+16109211998", "display_phone": "(610) 921-1998", "distance": 3071.651126806257}, {"id": "naq2UQIZYeZAr9mKLH0Clg", "alias": "new-happy-garden-temple", "name": "New Happy Garden", "image_url": "https://s3-media4.fl.yelpcdn.com/bphoto/s0Sugy4wjHVa12oUAy86QQ/o.jpg", "is_closed": false, "url": "https://www.yelp.com/biz/new-happy-garden-temple?adjust_creative=pmEh1CnvTrbj1V5gF4_06w&utm_campaign=yelp_api_v3&utm_medium=api_v3_business_search&utm_source=pmEh1CnvTrbj1V5gF4_06w", "review_count": 12, "categories": [{"alias": "chinese", "title": "Chinese"}], "rating": 2.0, "coordinates": {"latitude": 40.4013, "longitude": -75.92704}, "transactions": ["delivery"], "price": "$", "location": {"address1": "4447 N 5th St Hwy", "address2": "", "address3": "", "city": "Temple", "zip_code": "19560", "country": "US", "state": "PA", "display_address": ["4447 N 5th St Hwy", "Temple, PA 19560"]}, "phone": "+16109218559", "display_phone": "(610) 921-8559", "distance": 5093.983112414516}, {"id": "4NeP-dg4R3iFkT3SGTybMA", "alias": "thaiwat-reading", "name": "Thaiwat", "image_url": "https://s3-media2.fl.yelpcdn.com/bphoto/B_iRo2o2sYmcZgwmYW9d-A/o.jpg", "is_closed": false, "url": "https://www.yelp.com/biz/thaiwat-reading?adjust_creative=pmEh1CnvTrbj1V5gF4_06w&utm_campaign=yelp_api_v3&utm_medium=api_v3_business_search&utm_source=pmEh1CnvTrbj1V5gF4_06w", "review_count": 77, "categories": [{"alias": "thai", "title": "Thai"}], "rating": 4.0, "coordinates": {"latitude": 40.3418259, "longitude": -75.9794712}, "transactions": ["pickup", "delivery"], "price": "$$", "location": {"address1": "1145 Berkshire Blvd", "address2": "", "address3": "", "city": "Reading", "zip_code": "19610", "country": "US", "state": "PA", "display_address": ["1145 Berkshire Blvd", "Reading, PA 19610"]}, "phone": "+16108989191", "display_phone": "(610) 898-9191", "distance": 3636.6686926235225}, {"id": "66K0BTuSibMwfTGHs-5cVg", "alias": "chen-vegetarian-house-west-reading", "name": "Chen Vegetarian House", "image_url": "https://s3-media1.fl.yelpcdn.com/bphoto/FeXYzXy_PTVVRyt7nzFXuw/o.jpg", "is_closed": false, "url": "https://www.yelp.com/biz/chen-vegetarian-house-west-reading?adjust_creative=pmEh1CnvTrbj1V5gF4_06w&utm_campaign=yelp_api_v3&utm_medium=api_v3_business_search&utm_source=pmEh1CnvTrbj1V5gF4_06w", "review_count": 102, "categories": [{"alias": "vegetarian", "title": "Vegetarian"}, {"alias": "chinese", "title": "Chinese"}, {"alias": "soup", "title": "Soup"}], "rating": 4.5, "coordinates": {"latitude": 40.336243, "longitude": -75.9521479}, "transactions": ["delivery"], "price": "$$", "location": {"address1": "709 Penn Ave", "address2": "", "address3": "", "city": "West Reading", "zip_code": "19611", "country": "US", "state": "PA", "display_address": ["709 Penn Ave", "West Reading, PA 19611"]}, "phone": "+16103742288", "display_phone": "(610) 374-2288", "distance": 2457.9884096268693}, {"id": "oDMp1VC5sz7hSOe6E5WQBQ", "alias": "spoonful-thai-bistro-west-reading", "name": "Spoonful Thai Bistro", "image_url": "https://s3-media1.fl.yelpcdn.com/bphoto/AcT7qEPgrif0roCU1jjpxw/o.jpg", "is_closed": false, "url": "https://www.yelp.com/biz/spoonful-thai-bistro-west-reading?adjust_creative=pmEh1CnvTrbj1V5gF4_06w&utm_campaign=yelp_api_v3&utm_medium=api_v3_business_search&utm_source=pmEh1CnvTrbj1V5gF4_06w", "review_count": 11, "categories": [{"alias": "thai", "title": "Thai"}], "rating": 4.0, "coordinates": {"latitude": 40.33614, "longitude": -75.95036}, "transactions": ["pickup", "delivery"], "location": {"address1": "615 Penn Ave", "address2": null, "address3": "", "city": "West Reading", "zip_code": "19611", "country": "US", "state": "PA", "display_address": ["615 Penn Ave", "West Reading, PA 19611"]}, "phone": "+14848782941", "display_phone": "(484) 878-2941", "distance": 2416.2875660182526}, {"id": "rXWol0qtMhr8jQy8wwMT9A", "alias": "chengdu-taste-reading", "name": "Chengdu Taste", "image_url": "https://s3-media2.fl.yelpcdn.com/bphoto/SQqiRPb3J4bYrrfo1CtMsw/o.jpg", "is_closed": false, "url": "https://www.yelp.com/biz/chengdu-taste-reading?adjust_creative=pmEh1CnvTrbj1V5gF4_06w&utm_campaign=yelp_api_v3&utm_medium=api_v3_business_search&utm_source=pmEh1CnvTrbj1V5gF4_06w", "review_count": 1, "categories": [{"alias": "chinese", "title": "Chinese"}, {"alias": "sushi", "title": "Sushi Bars"}], "rating": 3.0, "coordinates": {"latitude": 40.36461, "longitude": -75.91347}, "transactions": ["pickup", "delivery"], "location": {"address1": "1140 Rockland St", "address2": "", "address3": null, "city": "Reading", "zip_code": "19604", "country": "US", "state": "PA", "display_address": ["1140 Rockland St", "Reading, PA 19604"]}, "phone": "+16107507017", "display_phone": "(610) 750-7017", "distance": 2508.7572486420513}, {"id": "EMM_UNHD_hmkYLzpWO3dhg", "alias": "china-king-restaurant-wyomissing", "name": "China King Restaurant", "image_url": "", "is_closed": false, "url": "https://www.yelp.com/biz/china-king-restaurant-wyomissing?adjust_creative=pmEh1CnvTrbj1V5gF4_06w&utm_campaign=yelp_api_v3&utm_medium=api_v3_business_search&utm_source=pmEh1CnvTrbj1V5gF4_06w", "review_count": 1, "categories": [{"alias": "chinese", "title": "Chinese"}], "rating": 3.0, "coordinates": {"latitude": 40.3464, "longitude": -75.95944}, "transactions": ["delivery"], "location": {"address1": "840 N Park Rd", "address2": "Ste 7", "address3": null, "city": "Wyomissing", "zip_code": "19610", "country": "US", "state": "PA", "display_address": ["840 N Park Rd", "Ste 7", "Wyomissing, PA 19610"]}, "phone": "+16103738805", "display_phone": "(610) 373-8805", "distance": 1910.1642284069765}, {"id": "C-Ls4LyvJyf1hcTqmoVrdw", "alias": "china-house-reading", "name": "China House", "image_url": "", "is_closed": false, "url": "https://www.yelp.com/biz/china-house-reading?adjust_creative=pmEh1CnvTrbj1V5gF4_06w&utm_campaign=yelp_api_v3&utm_medium=api_v3_business_search&utm_source=pmEh1CnvTrbj1V5gF4_06w", "review_count": 3, "categories": [{"alias": "chinese", "title": "Chinese"}], "rating": 2.5, "coordinates": {"latitude": 40.381893, "longitude": -75.925508}, "transactions": ["delivery"], "location": {"address1": "3215 N 5th Street Hwy", "address2": "", "address3": "", "city": "Reading", "zip_code": "19605", "country": "US", "state": "PA", "display_address": ["3215 N 5th Street Hwy", "Reading, PA 19605"]}, "phone": "+16109399838", "display_phone": "(610) 939-9838", "distance": 3099.865460152619}, {"id": "RuI8X1bQ4kRbBUWE4Fotdw", "alias": "happy-family-chinese-restaurant-reading", "name": "Happy Family Chinese Restaurant", "image_url": "https://s3-media3.fl.yelpcdn.com/bphoto/WnizYHIBXA2pIVP3IGw6VQ/o.jpg", "is_closed": false, "url": "https://www.yelp.com/biz/happy-family-chinese-restaurant-reading?adjust_creative=pmEh1CnvTrbj1V5gF4_06w&utm_campaign=yelp_api_v3&utm_medium=api_v3_business_search&utm_source=pmEh1CnvTrbj1V5gF4_06w", "review_count": 10, "categories": [{"alias": "chinese", "title": "Chinese"}], "rating": 2.0, "coordinates": {"latitude": 40.345343, "longitude": -75.921025}, "transactions": ["delivery"], "location": {"address1": "632 Greenwich St", "address2": "", "address3": "", "city": "Reading", "zip_code": "19601", "country": "US", "state": "PA", "display_address": ["632 Greenwich St", "Reading, PA 19601"]}, "phone": "+16103724471", "display_phone": "(610) 372-4471", "distance": 2133.117210438353}, {"id": "Z-y_6DP6FNgpkz1R-2UbHQ", "alias": "china-penn-reading", "name": "China Penn", "image_url": "https://s3-media4.fl.yelpcdn.com/bphoto/kdpN5jFlRnrr8sG-fOjCXA/o.jpg", "is_closed": false, "url": "https://www.yelp.com/biz/china-penn-reading?adjust_creative=pmEh1CnvTrbj1V5gF4_06w&utm_campaign=yelp_api_v3&utm_medium=api_v3_business_search&utm_source=pmEh1CnvTrbj1V5gF4_06w", "review_count": 58, "categories": [{"alias": "chinese", "title": "Chinese"}, {"alias": "japanese", "title": "Japanese"}, {"alias": "thai", "title": "Thai"}], "rating": 2.5, "coordinates": {"latitude": 40.312462, "longitude": -75.866755}, "transactions": ["delivery", "pickup"], "price": "$$", "location": {"address1": "4203 Perkiomen Ave", "address2": "", "address3": "", "city": "Reading", "zip_code": "19606", "country": "US", "state": "PA", "display_address": ["4203 Perkiomen Ave", "Reading, PA 19606"]}, "phone": "+16107799754", "display_phone": "(610) 779-9754", "distance": 8008.483209894662}, {"id": "odETnM8X5DkYmbyxJj_t4w", "alias": "thai-cuisine-reading", "name": "Thai Cuisine", "image_url": "https://s3-media2.fl.yelpcdn.com/bphoto/fMXs19I7kJlXI_8CsaWMqg/o.jpg", "is_closed": false, "url": "https://www.yelp.com/biz/thai-cuisine-reading?adjust_creative=pmEh1CnvTrbj1V5gF4_06w&utm_campaign=yelp_api_v3&utm_medium=api_v3_business_search&utm_source=pmEh1CnvTrbj1V5gF4_06w", "review_count": 42, "categories": [{"alias": "thai", "title": "Thai"}, {"alias": "seafood", "title": "Seafood"}, {"alias": "vegetarian", "title": "Vegetarian"}], "rating": 3.5, "coordinates": {"latitude": 40.377121, "longitude": -75.9305115}, "transactions": ["delivery"], "price": "$$", "location": {"address1": "502 Eisenbrown St", "address2": "", "address3": "", "city": "Reading", "zip_code": "19605", "country": "US", "state": "PA", "display_address": ["502 Eisenbrown St", "Reading, PA 19605"]}, "phone": "+16109296993", "display_phone": "(610) 929-6993", "distance": 2457.5929113316984}, {"id": "QxbgW693igqwM_nJE33rlQ", "alias": "china-max-wyomissing", "name": "China Max", "image_url": "https://s3-media1.fl.yelpcdn.com/bphoto/aztkUrAlXpggZC_5Y1IPKg/o.jpg", "is_closed": false, "url": "https://www.yelp.com/biz/china-max-wyomissing?adjust_creative=pmEh1CnvTrbj1V5gF4_06w&utm_campaign=yelp_api_v3&utm_medium=api_v3_business_search&utm_source=pmEh1CnvTrbj1V5gF4_06w", "review_count": 4, "categories": [{"alias": "chinese", "title": "Chinese"}], "rating": 3.5, "coordinates": {"latitude": 40.3413868, "longitude": -75.9703538}, "transactions": [], "price": "$", "location": {"address1": "1665 State Hill Rd", "address2": "", "address3": "Berkshire Mall", "city": "Wyomissing", "zip_code": "19610", "country": "US", "state": "PA", "display_address": ["1665 State Hill Rd", "Berkshire Mall", "Wyomissing, PA 19610"]}, "phone": "+16103718865", "display_phone": "(610) 371-8865", "distance": 2997.5061992396486}, {"id": "q6FJxUtioYvRynYhKwkoUw", "alias": "8899-chinese-restaurant-reading", "name": "8899 Chinese Restaurant", "image_url": "https://s3-media1.fl.yelpcdn.com/bphoto/KE8kQtuK45K5EgPUWobSCQ/o.jpg", "is_closed": false, "url": "https://www.yelp.com/biz/8899-chinese-restaurant-reading?adjust_creative=pmEh1CnvTrbj1V5gF4_06w&utm_campaign=yelp_api_v3&utm_medium=api_v3_business_search&utm_source=pmEh1CnvTrbj1V5gF4_06w", "review_count": 6, "categories": [{"alias": "chinese", "title": "Chinese"}], "rating": 2.5, "coordinates": {"latitude": 40.37452, "longitude": -75.9186}, "transactions": ["delivery"], "location": {"address1": "2605 Kutztown Rd", "address2": null, "address3": "", "city": "Reading", "zip_code": "19605", "country": "US", "state": "PA", "display_address": ["2605 Kutztown Rd", "Reading, PA 19605"]}, "phone": "+16107505593", "display_phone": "(610) 750-5593", "distance": 2754.6465860862686}, {"id": "GKrVCr6_QTzx87yNYWY6UQ", "alias": "best-china-chef-reading", "name": "Best China Chef", "image_url": "https://s3-media4.fl.yelpcdn.com/bphoto/uHgnBJpGRjLIBALe_yOa_A/o.jpg", "is_closed": false, "url": "https://www.yelp.com/biz/best-china-chef-reading?adjust_creative=pmEh1CnvTrbj1V5gF4_06w&utm_campaign=yelp_api_v3&utm_medium=api_v3_business_search&utm_source=pmEh1CnvTrbj1V5gF4_06w", "review_count": 21, "categories": [{"alias": "chinese", "title": "Chinese"}], "rating": 2.5, "coordinates": {"latitude": 40.295742485173406, "longitude": -75.84456818534971}, "transactions": ["delivery"], "price": "$", "location": {"address1": "5506 Perkiomen Ave", "address2": "", "address3": "", "city": "Reading", "zip_code": "19606", "country": "US", "state": "PA", "display_address": ["5506 Perkiomen Ave", "Reading, PA 19606"]}, "phone": "+16104040008", "display_phone": "(610) 404-0008", "distance": 10639.939172422663}, {"id": "23AE6zHAY12yOfCpjiaLrg", "alias": "golden-bowl-chinese-restaurant-reading", "name": "Golden Bowl Chinese Restaurant", "image_url": "https://s3-media4.fl.yelpcdn.com/bphoto/dZ5-0FQT-TWBIHi6lUZPGQ/o.jpg", "is_closed": false, "url": "https://www.yelp.com/biz/golden-bowl-chinese-restaurant-reading?adjust_creative=pmEh1CnvTrbj1V5gF4_06w&utm_campaign=yelp_api_v3&utm_medium=api_v3_business_search&utm_source=pmEh1CnvTrbj1V5gF4_06w", "review_count": 4, "categories": [{"alias": "chinese", "title": "Chinese"}, {"alias": "seafood", "title": "Seafood"}, {"alias": "soup", "title": "Soup"}], "rating": 2.0, "coordinates": {"latitude": 40.33498, "longitude": -75.92036}, "transactions": ["delivery"], "location": {"address1": "850 Penn St", "address2": "", "address3": "", "city": "Reading", "zip_code": "19602", "country": "US", "state": "PA", "display_address": ["850 Penn St", "Reading, PA 19602"]}, "phone": "+16103718680", "display_phone": "(610) 371-8680", "distance": 2992.8553304967713}, {"id": "LVPiBZSJ9sg_HJ2gHCQNVg", "alias": "jade-garden-restaurant-reading", "name": "Jade Garden Restaurant", "image_url": "https://s3-media2.fl.yelpcdn.com/bphoto/LnWpK9yFdVZ-DE_OYCF2_g/o.jpg", "is_closed": false, "url": "https://www.yelp.com/biz/jade-garden-restaurant-reading?adjust_creative=pmEh1CnvTrbj1V5gF4_06w&utm_campaign=yelp_api_v3&utm_medium=api_v3_business_search&utm_source=pmEh1CnvTrbj1V5gF4_06w", "review_count": 24, "categories": [{"alias": "chinese", "title": "Chinese"}, {"alias": "seafood", "title": "Seafood"}, {"alias": "soup", "title": "Soup"}], "rating": 2.5, "coordinates": {"latitude": 40.30527, "longitude": -75.9751}, "transactions": ["delivery", "pickup"], "price": "$$", "location": {"address1": "450 W Lancaster Ave", "address2": null, "address3": null, "city": "Reading", "zip_code": "19607", "country": "US", "state": "PA", "display_address": ["450 W Lancaster Ave", "Reading, PA 19607"]}, "phone": "+16107968979", "display_phone": "(610) 796-8979", "distance": 6404.631856239754}, {"id": "PpUR8RXPDBLTWjlkvngfZw", "alias": "happy-gardens-leesport", "name": "Happy Gardens", "image_url": "https://s3-media3.fl.yelpcdn.com/bphoto/MOgPErAPsd2bfe_nkk1Xcg/o.jpg", "is_closed": false, "url": "https://www.yelp.com/biz/happy-gardens-leesport?adjust_creative=pmEh1CnvTrbj1V5gF4_06w&utm_campaign=yelp_api_v3&utm_medium=api_v3_business_search&utm_source=pmEh1CnvTrbj1V5gF4_06w", "review_count": 6, "categories": [{"alias": "chinese", "title": "Chinese"}], "rating": 2.5, "coordinates": {"latitude": 40.3892135620117, "longitude": -75.9924850463867}, "transactions": ["delivery"], "location": {"address1": "2727 Bernville Rd", "address2": "", "address3": "", "city": "Leesport", "zip_code": "19533", "country": "US", "state": "PA", "display_address": ["2727 Bernville Rd", "Leesport, PA 19533"]}, "phone": "+16109168872", "display_phone": "(610) 916-8872", "distance": 5644.070124944718}, {"id": "N3dk2Y0vjrSek60JAVQC7A", "alias": "hunan-restaurant-reading", "name": "Hunan Restaurant", "image_url": "https://s3-media4.fl.yelpcdn.com/bphoto/MJpO1h1B4rc_rkfXDfkhUA/o.jpg", "is_closed": false, "url": "https://www.yelp.com/biz/hunan-restaurant-reading?adjust_creative=pmEh1CnvTrbj1V5gF4_06w&utm_campaign=yelp_api_v3&utm_medium=api_v3_business_search&utm_source=pmEh1CnvTrbj1V5gF4_06w", "review_count": 2, "categories": [{"alias": "chinese", "title": "Chinese"}], "rating": 4.0, "coordinates": {"latitude": 40.335087, "longitude": -75.930725}, "transactions": ["delivery"], "location": {"address1": "334 Penn St", "address2": "", "address3": "", "city": "Reading", "zip_code": "19602", "country": "US", "state": "PA", "display_address": ["334 Penn St", "Reading, PA 19602"]}, "phone": "+16103768088", "display_phone": "(610) 376-8088", "distance": 2568.55432534275}, {"id": "9E3Y9XB0KazUppL_EOo-Fw", "alias": "lucky-house-reading", "name": "Lucky House", "image_url": "https://s3-media3.fl.yelpcdn.com/bphoto/BJ_1jAgE0obEojkxXkS3Kw/o.jpg", "is_closed": false, "url": "https://www.yelp.com/biz/lucky-house-reading?adjust_creative=pmEh1CnvTrbj1V5gF4_06w&utm_campaign=yelp_api_v3&utm_medium=api_v3_business_search&utm_source=pmEh1CnvTrbj1V5gF4_06w", "review_count": 17, "categories": [{"alias": "sushi", "title": "Sushi Bars"}, {"alias": "thai", "title": "Thai"}, {"alias": "chinese", "title": "Chinese"}], "rating": 2.0, "coordinates": {"latitude": 40.331886, "longitude": -75.888855}, "transactions": [], "price": "$", "location": {"address1": "267 Carsonia Ave", "address2": "", "address3": "", "city": "Reading", "zip_code": "19606", "country": "US", "state": "PA", "display_address": ["267 Carsonia Ave", "Reading, PA 19606"]}, "phone": "+16109275666", "display_phone": "(610) 927-5666", "distance": 5231.926767501573}, {"id": "HmaSHR3bcEyxLoyBnDk3MQ", "alias": "tai-pei-chinese-kitchen-in-giant-reading", "name": "Tai Pei Chinese Kitchen in Giant", "image_url": "https://s3-media2.fl.yelpcdn.com/bphoto/3yboW12Bnyi7bylTL1bTMw/o.jpg", "is_closed": false, "url": "https://www.yelp.com/biz/tai-pei-chinese-kitchen-in-giant-reading?adjust_creative=pmEh1CnvTrbj1V5gF4_06w&utm_campaign=yelp_api_v3&utm_medium=api_v3_business_search&utm_source=pmEh1CnvTrbj1V5gF4_06w", "review_count": 1, "categories": [{"alias": "chinese", "title": "Chinese"}], "rating": 2.0, "coordinates": {"latitude": 40.3443162692069, "longitude": -76.0020427792281}, "transactions": ["delivery", "pickup"], "location": {"address1": "2104 Van Reed Rd", "address2": "", "address3": null, "city": "Reading", "zip_code": "19609", "country": "US", "state": "PA", "display_address": ["2104 Van Reed Rd", "Reading, PA 19609"]}, "phone": "+19179155218", "display_phone": "(917) 915-5218", "distance": 5331.399200763763}, {"id": "b57vibpm13cg_QvxANKYVQ", "alias": "dream-garden-sinking-spring", "name": "Dream Garden", "image_url": "https://s3-media3.fl.yelpcdn.com/bphoto/O9lqmEy1Yv3ZnaS9UZhjCw/o.jpg", "is_closed": false, "url": "https://www.yelp.com/biz/dream-garden-sinking-spring?adjust_creative=pmEh1CnvTrbj1V5gF4_06w&utm_campaign=yelp_api_v3&utm_medium=api_v3_business_search&utm_source=pmEh1CnvTrbj1V5gF4_06w", "review_count": 10, "categories": [{"alias": "chinese", "title": "Chinese"}], "rating": 3.5, "coordinates": {"latitude": 40.3248063465625, "longitude": -76.0123395826238}, "transactions": ["delivery"], "price": "$", "location": {"address1": "3564 Penn Ave", "address2": "", "address3": "", "city": "Sinking Spring", "zip_code": "19608", "country": "US", "state": "PA", "display_address": ["3564 Penn Ave", "Sinking Spring, PA 19608"]}, "phone": "+16106701556", "display_phone": "(610) 670-1556", "distance": 6991.468472133949}, {"id": "60eeXseXD_PQynBy-r50Ew", "alias": "magic-wok-reading", "name": "Magic Wok", "image_url": "https://s3-media2.fl.yelpcdn.com/bphoto/N2Yuwl_aBPKb-wnmZQ9-CA/o.jpg", "is_closed": false, "url": "https://www.yelp.com/biz/magic-wok-reading?adjust_creative=pmEh1CnvTrbj1V5gF4_06w&utm_campaign=yelp_api_v3&utm_medium=api_v3_business_search&utm_source=pmEh1CnvTrbj1V5gF4_06w", "review_count": 4, "categories": [{"alias": "chinese", "title": "Chinese"}], "rating": 2.5, "coordinates": {"latitude": 40.3418960571289, "longitude": -75.9356231689453}, "transactions": ["delivery"], "price": "$", "location": {"address1": "101 W Buttonwood St", "address2": null, "address3": null, "city": "Reading", "zip_code": "19601", "country": "US", "state": "PA", "display_address": ["101 W Buttonwood St", "Reading, PA 19601"]}, "phone": "+16104787303", "display_phone": "(610) 478-7303", "distance": 1722.7340764689297}, {"id": "f6VMcwMBXkLzxfuh34T3Bg", "alias": "mandarin-wok-reading", "name": "Mandarin Wok", "image_url": "https://s3-media1.fl.yelpcdn.com/bphoto/xE1ja4-Zb89UcEfOVxYj1Q/o.jpg", "is_closed": false, "url": "https://www.yelp.com/biz/mandarin-wok-reading?adjust_creative=pmEh1CnvTrbj1V5gF4_06w&utm_campaign=yelp_api_v3&utm_medium=api_v3_business_search&utm_source=pmEh1CnvTrbj1V5gF4_06w", "review_count": 13, "categories": [{"alias": "chinese", "title": "Chinese"}], "rating": 2.5, "coordinates": {"latitude": 40.3287093199229, "longitude": -75.8788231590322}, "transactions": ["delivery"], "price": "$", "location": {"address1": "2900 Saint Lawrence Ave", "address2": "", "address3": "", "city": "Reading", "zip_code": "19606", "country": "US", "state": "PA", "display_address": ["2900 Saint Lawrence Ave", "Reading, PA 19606"]}, "phone": "+16107795522", "display_phone": "(610) 779-5522", "distance": 6186.0719578302405}, {"id": "Q9cP-lhd_6hisEsG3weqOA", "alias": "zoup-wyomissing-2", "name": "Zoup!", "image_url": "https://s3-media3.fl.yelpcdn.com/bphoto/mq5_3iNA8J0cK8DOt8pVkA/o.jpg", "is_closed": false, "url": "https://www.yelp.com/biz/zoup-wyomissing-2?adjust_creative=pmEh1CnvTrbj1V5gF4_06w&utm_campaign=yelp_api_v3&utm_medium=api_v3_business_search&utm_source=pmEh1CnvTrbj1V5gF4_06w", "review_count": 39, "categories": [{"alias": "soup", "title": "Soup"}, {"alias": "sandwiches", "title": "Sandwiches"}, {"alias": "salad", "title": "Salad"}], "rating": 4.0, "coordinates": {"latitude": 40.3498605, "longitude": -75.9649214}, "transactions": ["delivery", "pickup"], "price": "$", "location": {"address1": "760 Woodland Rd", "address2": "", "address3": null, "city": "Wyomissing", "zip_code": "19610", "country": "US", "state": "PA", "display_address": ["760 Woodland Rd", "Wyomissing, PA 19610"]}, "phone": "+16103726717", "display_phone": "(610) 372-6717", "distance": 2144.5454437621006}]